City,Cloudiness,Country,Date,Humidity,Lat,Lng,Max Temp,Wind Speed
Cherskiy,100,RU,1585508969,91,68.75,161.3,24.84,18.95
Butaritari,100,KI,1585508782,67,3.07,172.79,80.69,5.1
Rikitea,59,PF,1585508970,80,-23.12,-134.97,79.21,11.72
Cayenne,75,GF,1585508970,83,4.93,-52.33,82.4,12.75
Yellowknife,75,CA,1585508731,53,62.46,-114.35,-5.01,9.17
Waddān,77,LY,1585508970,26,29.16,16.14,73.0,13.31
Soyo,33,AO,1585508970,86,-6.13,12.37,80.98,8.59
Fort Nelson,90,CA,1585508970,71,58.81,-122.7,5.0,10.29
Berlevåg,75,NO,1585508970,85,70.86,29.09,17.6,27.51
Saint-Philippe,40,RE,1585508970,83,-21.36,55.77,77.0,4.7
Dikson,98,RU,1585508874,95,73.51,80.55,4.39,8.12
Hithadhoo,96,MV,1585508971,63,-0.6,73.08,84.6,7.27
Busselton,44,AU,1585508971,84,-33.65,115.33,59.0,3.22
Touros,75,BR,1585508971,83,-5.2,-35.46,82.4,6.93
Albany,90,US,1585508971,76,42.6,-73.97,50.0,14.99
Tubinskiy,71,RU,1585508971,69,52.89,58.22,35.6,13.42
Qaanaaq,100,GL,1585508971,91,77.48,-69.36,6.55,7.96
Punta Arenas,75,CL,1585508853,54,-53.15,-70.92,53.6,29.97
Cidreira,35,BR,1585508862,65,-30.18,-50.21,80.26,10.29
Ponoka,90,CA,1585508971,100,52.68,-113.58,30.0,3.36
Salta,75,AR,1585508971,61,-24.79,-65.41,77.0,4.7
Nānākuli,75,US,1585508972,100,21.39,-158.15,77.0,12.26
Vaini,75,TO,1585508742,88,-21.2,-175.2,78.8,3.36
Norman Wells,20,CA,1585508972,63,65.28,-126.83,-11.2,16.11
Barrow,1,US,1585508972,75,71.29,-156.79,-18.4,11.41
Am Timan,29,TD,1585508973,10,11.03,20.28,91.09,5.17
Pacific Grove,75,US,1585508973,67,36.62,-121.92,59.0,6.93
Båtsfjord,75,NO,1585508973,85,70.63,29.72,17.6,27.51
Hermanus,2,ZA,1585508757,83,-34.42,19.23,61.0,11.12
Nome,1,US,1585508764,45,64.5,-165.41,1.4,1.61
Mataura,20,NZ,1585508973,91,-46.19,168.86,46.99,3.0
Brownwood,75,US,1585508973,39,31.71,-98.99,69.8,7.02
Elliot,66,ZA,1585508973,60,-31.33,27.85,55.56,5.14
Severo-Kuril'sk,80,RU,1585508973,91,50.68,156.12,27.3,16.67
Sabang,77,ID,1585508973,73,5.89,95.32,83.08,4.29
Prince Rupert,90,CA,1585508973,80,54.32,-130.32,41.0,11.41
Homer,1,US,1585508974,32,59.64,-151.55,23.0,10.29
Avarua,40,CK,1585508719,83,-21.21,-159.78,80.6,9.17
Ilulissat,100,GL,1585508974,86,69.22,-51.1,33.8,6.93
Bathsheba,40,BB,1585508974,55,13.22,-59.52,86.0,24.16
Cape Town,0,ZA,1585508937,67,-33.93,18.42,63.0,18.34
Maniitsoq,100,GL,1585508974,96,65.42,-52.9,32.22,28.27
San Cristobal,40,VE,1585508974,52,7.77,-72.22,87.8,11.41
Ushuaia,75,AR,1585508850,57,-54.8,-68.3,51.8,6.93
Avera,90,US,1585508975,69,33.19,-82.53,86.0,13.94
Mlonggo,100,ID,1585508975,77,-6.53,110.7,81.68,2.77
Leer,0,SS,1585508975,11,8.3,30.14,89.76,4.45
Gornopravdinsk,100,RU,1585508975,96,60.05,69.9,36.59,10.13
São Félix do Xingu,29,BR,1585508975,55,-6.64,-51.99,89.06,7.56
Kapaa,75,US,1585508975,88,22.08,-159.32,73.99,19.46
Payakumbuh,92,ID,1585508975,80,-0.22,100.63,70.68,3.06
Soloneshnoye,4,RU,1585508975,87,51.65,84.32,20.77,4.36
Esperance,0,AU,1585508975,93,-33.87,121.9,51.8,5.82
Chino Valley,1,US,1585508975,27,34.76,-112.45,59.0,6.93
Zeya,90,RU,1585508976,93,53.75,127.27,18.27,1.63
Ngunguru,16,NZ,1585508976,96,-35.62,174.5,52.0,8.01
La Rioja,40,ES,1585508976,66,42.25,-2.5,50.0,6.93
Hobart,14,AU,1585508709,59,-42.88,147.33,60.8,8.05
Lagoa,73,PT,1585508976,77,39.05,-27.98,58.15,22.95
Bignona,26,SN,1585508976,41,12.81,-16.23,93.2,9.17
Guerrero Negro,97,MX,1585508976,58,27.98,-114.06,63.55,18.52
Pozo Colorado,13,PY,1585508977,39,-23.49,-58.8,98.13,1.45
Sokolo,97,ML,1585508977,15,14.73,-6.12,92.48,2.66
Mount Gambier,75,AU,1585508977,100,-37.83,140.77,53.6,9.17
Marsh Harbour,28,BS,1585508715,73,26.54,-77.06,76.28,11.32
Tuatapere,7,NZ,1585508977,91,-46.13,167.68,46.99,3.0
Port Alfred,10,ZA,1585508977,95,-33.59,26.89,64.99,1.01
Tuktoyaktuk,90,CA,1585508977,74,69.45,-133.04,-22.0,6.93
Ebersberg,40,DE,1585508977,52,48.08,11.97,43.0,11.41
Luján,40,AR,1585508977,62,-34.57,-59.1,89.01,9.17
Souillac,75,MU,1585508877,94,-20.52,57.52,80.6,9.17
Bredasdorp,6,ZA,1585508845,67,-34.53,20.04,59.0,4.7
Fairbanks,1,US,1585508901,46,64.84,-147.72,9.0,6.93
Port Blair,49,IN,1585508978,68,11.67,92.75,80.98,3.56
Niamey,99,NE,1585508978,5,13.51,2.11,102.2,6.93
Gamba,55,GA,1585508978,86,-2.65,10.0,81.63,8.03
Majene,100,ID,1585508978,83,-3.54,118.97,78.91,3.31
Sitka,90,US,1585508978,50,57.05,-135.33,33.8,11.41
Talcahuano,1,CL,1585508978,52,-36.72,-73.12,68.0,13.87
Atuona,5,PF,1585508978,78,-9.8,-139.03,82.15,18.23
East London,10,ZA,1585508979,79,-33.02,27.91,70.39,8.75
Saldanha,0,ZA,1585508979,67,-33.01,17.94,60.8,12.75
Pindiga,24,NG,1585508963,12,9.98,10.93,91.22,4.27
Airai,100,TL,1585508979,56,-8.93,125.41,60.64,2.04
Columbia,40,US,1585508703,54,34.0,-81.03,86.0,11.41
Eyl,10,SO,1585508980,77,7.98,49.82,81.25,11.27
Torbay,90,CA,1585508980,100,47.67,-52.73,30.99,24.16
Chui,30,UY,1585508980,61,-33.7,-53.46,80.4,4.12
Nizhniy Kuranakh,99,RU,1585508981,90,58.84,125.49,17.19,6.49
Mahébourg,75,MU,1585508981,94,-20.41,57.7,80.6,9.17
Asadābād,58,IR,1585508825,43,34.78,48.12,45.28,7.25
Anshun,97,CN,1585508982,51,26.25,105.93,45.19,6.22
Santa Cruz de la Sierra,75,BO,1585508715,59,-17.8,-63.17,91.4,9.17
Bluff,39,NZ,1585508982,91,-46.6,168.33,46.99,3.0
Yerbogachën,99,RU,1585508982,93,61.28,108.01,20.53,11.18
Broken Hill,90,AU,1585508982,82,-31.95,141.43,62.6,12.75
Tuyen Quang,93,VN,1585508983,89,21.82,105.22,75.27,2.55
Nanortalik,100,GL,1585508983,92,60.14,-45.24,37.36,22.19
Rio Casca,98,BR,1585508983,60,-20.23,-42.65,82.15,1.14
Iquique,80,CL,1585508983,56,-20.22,-70.14,73.4,20.8
Dilla,86,ET,1585508984,44,6.41,38.31,69.24,5.73
Thompson,75,CA,1585508984,50,55.74,-97.86,6.8,12.75
Beringovskiy,65,RU,1585508984,92,63.05,179.32,20.59,17.92
Agadez,76,NE,1585508984,11,19.75,10.25,89.46,7.81
Nuquí,90,CO,1585508984,100,5.71,-77.27,75.2,5.82
George Town,40,MY,1585508984,89,5.41,100.34,84.2,4.81
Tiksi,81,RU,1585508984,90,71.69,128.87,-3.39,3.2
Oranjemund,0,NA,1585508985,75,-28.55,16.43,61.34,17.58
Puerto Ayora,20,EC,1585508985,70,-0.74,-90.35,84.2,3.36
Komsomolets,48,KZ,1585508985,92,53.75,62.07,30.99,11.05
New Norfolk,13,AU,1585508985,59,-42.78,147.06,60.8,8.05
Champerico,75,GT,1585508985,62,14.3,-91.92,89.6,11.41
Clarence Town,40,AU,1585508985,93,-32.58,151.78,66.99,3.29
Anadyr,20,RU,1585508985,85,64.75,177.48,15.8,24.61
Port Elizabeth,40,ZA,1585508985,88,-33.92,25.57,62.6,10.29
San Vicente,19,AR,1585508985,57,-26.62,-54.13,80.65,0.81
Klaksvík,30,FO,1585508985,75,62.23,-6.59,44.6,9.17
Bethel,90,US,1585508859,93,41.37,-73.41,48.99,6.93
Vezirköprü,75,TR,1585508985,87,41.14,35.45,44.6,9.17
Kapoeta,90,SS,1585508985,64,4.77,33.59,74.5,4.94
Gizo Government Station,97,SB,1585508985,72,-8.1,156.84,82.67,3.06
Narsaq,100,GL,1585508985,86,60.92,-46.05,41.0,10.89
Naliya,0,IN,1585508985,74,23.27,68.83,74.34,12.33
Isiro,85,CD,1585508985,80,2.77,27.62,68.77,3.44
Ugoofaaru,36,MV,1585508985,63,5.67,73.0,84.24,3.6
Hofn,11,IS,1585508986,63,64.25,-15.21,44.85,8.43
Fes,75,MA,1585508986,59,34.04,-5.0,62.6,9.17
Provideniya,0,RU,1585508811,68,64.38,-173.3,3.06,3.38
Peace River,90,CA,1585508986,71,56.25,-117.29,8.6,11.41
Leshukonskoye,64,RU,1585508986,94,64.9,45.76,19.15,7.25
Hasaki,75,JP,1585508931,86,35.73,140.83,39.2,10.29
Río Gallegos,20,AR,1585508986,48,-51.62,-69.22,59.0,16.11
Lebu,0,CL,1585508986,58,-37.62,-73.65,61.45,18.34
Saint Paul Harbor,90,US,1585508909,58,57.79,-152.41,30.2,11.41
Clyde River,1,CA,1585508987,84,70.47,-68.59,-0.4,8.05
Hong Kong,40,HK,1585508744,88,22.29,114.16,73.0,20.8
Karatuzskoye,87,RU,1585508987,92,53.61,92.87,26.55,7.45
Tasiilaq,100,GL,1585508987,93,65.61,-37.64,37.4,12.75
Porto-Novo,40,BJ,1585508988,83,6.5,2.6,82.4,12.75
Saint-Pierre,44,RE,1585508988,83,-21.34,55.48,77.0,4.7
Savalou,68,BJ,1585508988,35,7.93,1.98,94.93,3.2
Yelizovo,75,RU,1585508988,62,53.19,158.38,24.8,4.47
Coyhaique,75,CL,1585508989,58,-45.58,-72.07,53.6,5.82
Melita,75,CA,1585508989,62,49.27,-101.0,41.04,9.04
Oussouye,13,SN,1585508989,61,12.48,-16.55,93.2,6.93
Sur,0,OM,1585508989,65,22.57,59.53,76.6,17.11
Saskylakh,73,RU,1585508990,87,71.92,114.08,-19.34,3.67
Jamestown,75,US,1585508883,72,42.1,-79.24,68.0,20.8
Mabaruma,93,GY,1585508990,63,8.2,-59.78,84.4,10.69
Coquimbo,97,CL,1585508909,64,-29.95,-71.34,69.8,14.99
Opuwo,61,NA,1585508990,38,-18.06,13.84,78.4,3.58
San Quintín,36,MX,1585508990,57,30.48,-115.95,61.65,17.92
Xingyi,1,CN,1585508990,20,24.19,102.82,61.43,7.09
Humberto de Campos,53,BR,1585508990,77,-2.6,-43.46,85.15,6.51
Najrān,5,SA,1585508990,28,17.49,44.13,84.2,16.11
Castro,100,BR,1585508991,68,-24.79,-50.01,69.75,2.28
Ayorou,25,NE,1585508991,11,14.73,0.92,97.47,5.99
Hilo,75,US,1585508991,83,19.73,-155.09,72.0,3.36
Fougamou,66,GA,1585508991,89,-1.22,10.58,79.18,3.2
Luanda,20,AO,1585508991,74,-8.84,13.23,82.4,9.17
Kavieng,93,PG,1585508991,73,-2.57,150.8,82.89,5.01
Praia,75,CV,1585508991,57,14.92,-23.51,77.0,18.34
Geraldton,27,AU,1585508991,76,-28.77,114.6,57.2,6.93
Margate,20,GB,1585508848,59,51.38,1.39,42.01,11.41
Acaxochitlán,51,MX,1585508992,33,20.17,-98.2,68.29,8.34
Acapulco de Juárez,5,MX,1585508957,70,16.86,-99.89,84.2,6.93
Jay,90,US,1585508992,69,44.5,-70.22,44.01,10.29
Mehamn,75,NO,1585508992,73,71.04,27.85,23.0,26.4
Talnakh,75,RU,1585508992,92,69.49,88.4,21.2,15.66
Carnarvon,66,AU,1585508992,73,-24.87,113.63,73.4,13.87
Padang,100,ID,1585508992,82,-0.95,100.35,76.6,4.34
Cascais,93,PT,1585508992,54,38.7,-9.42,60.01,8.05
Reconquista,17,AR,1585508992,37,-29.15,-59.65,90.05,3.51
Diffa,84,NE,1585508992,15,13.32,12.61,91.45,7.05
Pisco,85,PE,1585508993,30,-13.7,-76.22,75.99,11.41
Taltal,65,CL,1585508993,55,-25.4,-70.48,73.83,9.08
Petropavlovsk-Kamchatskiy,75,RU,1585508993,62,53.05,158.65,24.8,4.47
Mitsamiouli,75,KM,1585508993,69,-11.38,43.28,82.4,3.36
Puerto Ayacucho,40,VE,1585508993,30,5.66,-67.62,98.6,16.11
Stokmarknes,93,NO,1585508993,80,68.56,14.91,25.0,10.09
Havre-St-Pierre,1,CA,1585508993,91,50.23,-63.6,32.0,5.82
Vila Franca do Campo,75,PT,1585508993,67,37.72,-25.43,60.8,14.99
Rovaniemi,21,FI,1585508994,41,66.5,25.72,21.2,8.05
Bambous Virieux,75,MU,1585508994,94,-20.34,57.76,80.6,9.17
Río Cuarto,75,AR,1585508703,54,-33.13,-64.35,80.6,9.17
Khatanga,98,RU,1585508994,91,71.97,102.5,-10.75,1.16
Udachny,90,RU,1585508994,92,66.42,112.4,10.4,2.24
Sabha,86,LY,1585508994,35,27.04,14.43,75.15,10.58
Nanchang,100,CN,1585508994,92,28.68,115.88,45.99,7.61
Longyearbyen,40,SJ,1585508716,59,78.22,15.64,3.2,8.05
Walvis Bay,30,NA,1585508926,90,-22.96,14.51,61.0,1.99
Claresholm,1,CA,1585508994,60,50.03,-113.59,48.0,20.8
Isangel,100,VU,1585508723,87,-19.55,169.27,77.72,19.35
Nianzishan,100,CN,1585508707,60,47.52,122.88,38.59,4.59
Kununurra,50,AU,1585508995,83,-15.77,128.73,73.4,2.19
Los Llanos de Aridane,75,ES,1585508995,68,28.66,-17.92,68.0,4.7
Bayevo,98,RU,1585508995,96,53.28,80.77,28.94,9.53
Trofors,75,NO,1585508995,86,65.53,13.41,30.2,4.7
Korsholm,75,FI,1585508995,68,63.11,21.68,28.4,1.12
Codrington,45,AU,1585508996,79,-38.27,141.97,59.11,14.09
Nikolskoye,86,RU,1585508996,54,59.7,30.79,28.4,2.24
Arraial do Cabo,20,BR,1585508996,61,-22.97,-42.03,82.4,12.75
Upernavik,100,GL,1585508996,94,72.79,-56.15,11.39,11.54
Sistranda,90,NO,1585508996,78,63.73,8.83,32.0,6.93
Luba,75,GQ,1585508996,100,3.46,8.55,80.6,5.82
Corbu,100,RO,1585508997,46,44.38,28.65,50.0,8.05
Searcy,1,US,1585508997,37,35.25,-91.74,71.6,4.7
Boyabat,96,TR,1585508997,71,41.47,34.77,47.23,1.16
Makakilo City,75,US,1585508903,100,21.35,-158.09,77.0,12.39
Oruzgan,100,AF,1585508997,47,32.83,66.0,46.56,3.8
Luxor,0,EG,1585508997,31,25.7,32.64,73.4,7.18
Meulaboh,80,ID,1585508997,80,4.14,96.13,80.19,1.92
Moranbah,10,AU,1585508997,88,-22.0,148.05,66.79,9.4
Yulara,99,AU,1585508997,33,-25.24,130.99,77.0,9.17
Faanui,44,PF,1585508997,72,-16.48,-151.75,83.28,9.75
Vardø,90,NO,1585508998,85,70.37,31.11,17.6,27.51
Ust'-Karsk,22,RU,1585508998,85,52.7,118.81,25.07,3.36
Chokurdakh,99,RU,1585508998,95,70.63,147.92,6.4,10.33
Ahipara,2,NZ,1585508998,79,-35.17,173.17,59.94,7.05
Meadow Lake,1,US,1585508998,16,34.8,-106.54,60.01,10.29
Dwārka,0,IN,1585508998,73,22.24,68.97,77.09,11.68
Lata,20,PT,1585508998,76,40.16,-8.33,61.0,2.24
Soavinandriana,3,MG,1585508826,67,-19.17,46.73,60.12,2.39
Rawson,0,AR,1585508745,30,-43.3,-65.1,68.11,4.94
Mar del Plata,75,AR,1585508839,94,-38.0,-57.56,70.0,11.41
Beaufort,75,MY,1585508999,94,5.35,115.75,80.6,2.24
Partenit,92,UA,1585508999,77,44.58,34.34,51.46,7.36
Brigantine,90,US,1585508999,93,39.41,-74.36,59.0,9.17
Salinópolis,14,BR,1585508999,78,-0.61,-47.36,83.48,13.8
Smithers,75,CA,1585509000,86,54.78,-127.17,37.4,3.36
Kirishi,97,RU,1585509000,29,59.45,32.02,26.01,4.16
Kiama,40,AU,1585509000,72,-34.68,150.87,68.0,10.29
Dori,61,BF,1585509000,10,14.04,-0.03,97.92,6.76
Kruisfontein,32,ZA,1585509000,74,-34.0,24.73,60.64,5.59
Kovdor,94,RU,1585509000,91,67.57,30.48,17.98,10.49
Ponta Delgada,75,PT,1585509001,67,37.73,-25.67,60.8,14.99
Naze,90,JP,1585508962,88,28.37,129.48,62.6,3.36
Sinnamary,97,GF,1585509001,79,5.38,-52.95,81.41,14.47
Half Moon Bay,20,US,1585508861,76,37.46,-122.43,59.0,10.29
Goderich,72,CA,1585509001,67,43.75,-81.72,62.01,23.62
Hanzhong,36,CN,1585509001,66,33.07,107.03,44.11,1.74
Ulaangom,68,MN,1585509003,76,49.98,92.07,16.48,6.17
Srednekolymsk,28,RU,1585508952,89,67.45,153.68,16.66,9.86
Nyurba,44,RU,1585509003,95,63.28,118.33,15.55,4.94
Cañazas,45,PA,1585509003,31,8.32,-81.22,92.43,10.11
Senno,100,RU,1585509004,83,59.53,33.92,27.7,7.36
Cururupu,29,BR,1585509004,71,-1.83,-44.87,86.25,7.78
Sayhāt,0,SA,1585509004,72,26.49,50.04,71.6,10.29
Weinan,33,CN,1585509004,93,34.5,109.51,46.99,3.4
Laas,90,IT,1585509004,60,46.62,10.7,44.01,6.93
Watertown,90,US,1585509004,93,42.37,-71.18,44.01,20.8
Santiago,61,CL,1585508821,36,-33.46,-70.65,82.4,3.36
Traralgon,14,AU,1585509005,97,-38.18,146.53,59.0,2.86
Mariinsk,100,RU,1585509005,95,56.21,87.75,29.12,13.58
Aksha,100,RU,1585509005,76,50.28,113.29,25.25,5.59
Luanda,20,AO,1585508991,74,-8.84,13.23,82.4,9.17
Poum,19,NC,1585509005,77,-20.23,164.02,77.77,17.36
Jodiya,0,IN,1585509005,48,22.69,70.31,81.0,7.65
Tsiroanomandidy,6,MG,1585508826,70,-18.77,46.03,67.26,2.13
Kaitangata,46,NZ,1585509005,85,-46.28,169.85,55.0,15.99
Alta Floresta,82,BR,1585509006,75,-9.88,-56.09,83.73,4.85
Emerald,0,AU,1585509006,88,-23.53,148.17,69.8,4.7
Celestún,0,MX,1585508771,58,20.87,-90.4,84.83,6.73
Marrakesh,40,MA,1585508763,40,31.63,-8.01,68.0,3.36
Vila,75,PT,1585509007,51,42.03,-8.16,61.0,9.17
Valparaíso,69,CL,1585509007,41,-33.04,-71.63,77.0,8.05
Kutum,14,SD,1585509007,13,14.2,24.67,78.58,13.29
Muzhi,71,RU,1585509001,93,65.37,64.67,23.97,12.53
Sorong,99,ID,1585509007,88,-0.88,131.25,77.74,3.15
Vestmannaeyjar,75,IS,1585509007,75,63.44,-20.27,42.8,18.34
Zapolyarnyy,75,RU,1585509008,79,69.42,30.81,21.2,16.11
Morant Bay,20,JM,1585508851,62,17.88,-76.41,86.0,28.86
Ati,12,TD,1585509008,9,13.22,18.34,95.41,9.82
Gachsaran,20,IR,1585508808,87,30.36,50.8,57.2,3.49
Toora-Khem,13,RU,1585509008,84,52.47,96.11,13.53,2.75
Adrar,29,MR,1585509008,11,20.5,-10.07,85.64,8.9
Matagami,75,CA,1585509008,36,49.75,-77.63,44.6,10.29
Kapit,98,MY,1585509009,94,2.02,112.93,74.8,0.67
Port Jervis,90,US,1585509009,93,41.38,-74.69,48.2,6.93
Garhākota,1,IN,1585509010,20,23.77,79.15,79.29,9.24
Tadine,97,NC,1585509010,77,-21.55,167.88,75.31,16.8
Caravelas,93,BR,1585509010,76,-17.71,-39.25,81.25,15.32
Laguna,75,US,1585509010,71,38.42,-121.42,62.01,3.36
Fortuna,90,US,1585509010,71,40.6,-124.16,57.2,11.41
Saint Anthony,90,US,1585509010,75,45.02,-93.22,44.01,17.22
Halifax,75,CA,1585508817,24,44.65,-63.57,52.0,8.05
Severo-Yeniseyskiy,97,RU,1585509010,94,60.37,93.04,19.85,8.88
Verkhnevilyuysk,66,RU,1585508736,95,63.45,120.32,14.25,4.29
Bundaberg,15,AU,1585509011,94,-24.85,152.35,68.0,6.93
Alghero,56,IT,1585509011,81,40.56,8.32,51.8,5.82
Lethem,86,GY,1585509011,43,3.38,-59.8,94.64,9.86
Preobrazheniye,4,RU,1585509011,87,42.9,133.91,34.23,6.96
Bandarbeyla,52,SO,1585509011,72,9.49,50.81,80.15,10.45
Tangzhai,88,CN,1585509011,79,34.43,116.59,39.22,3.89
Pochutla,5,MX,1585509012,38,15.74,-96.47,93.2,11.41
Atambua,94,ID,1585509012,78,-9.11,124.89,73.45,3.38
Morros,98,BR,1585509012,54,-9.45,-46.3,85.19,9.98
College,1,US,1585509012,45,64.86,-147.8,9.0,5.82
Lorengau,76,PG,1585509013,80,-2.02,147.27,81.91,7.78
Katsuura,75,JP,1585509013,75,35.13,140.3,42.8,13.87
Lichinga,20,MZ,1585509013,73,-13.31,35.24,61.54,3.04
Chimbote,77,PE,1585509013,61,-9.09,-78.58,80.56,12.48
Kargasok,89,RU,1585509013,96,59.06,80.86,34.16,14.56
Barberino di Mugello,40,IT,1585509014,62,44.0,11.24,59.0,6.93
Benguela,18,AO,1585509014,79,-12.58,13.41,78.12,4.36
Saint George,75,US,1585508914,35,37.1,-113.58,57.99,3.36
The Pas,20,CA,1585509014,46,53.83,-101.25,8.6,16.11
Jiuquan,100,CN,1585509014,25,39.74,98.52,45.16,8.21
São João da Barra,20,BR,1585509014,51,-21.64,-41.05,86.0,11.41
Kirkenær,69,NO,1585509014,38,60.46,12.06,39.2,2.24
Dondo,1,MZ,1585509015,78,-19.61,34.74,77.0,6.93
Vulcan,33,RO,1585509015,58,45.38,23.27,40.68,1.25
Oddur,70,SO,1585509015,46,4.12,43.89,85.08,9.62
Tanout,39,NE,1585509015,9,14.97,8.89,91.02,11.12
Brae,79,GB,1585508907,81,60.4,-1.35,44.6,10.29
Tiarei,80,PF,1585509016,58,-17.53,-149.33,87.8,6.93
Olafsvik,98,IS,1585508920,87,64.89,-23.71,41.23,19.46
Ayan,5,RU,1585509016,88,56.45,138.17,22.17,10.02
Córdoba,40,AR,1585509016,51,-31.41,-64.18,86.0,8.05
Tonj,33,SS,1585509016,32,7.27,28.68,87.24,3.65
Tigil',49,RU,1585509017,94,57.8,158.67,13.86,9.71
Hirara,92,JP,1585509017,69,24.8,125.28,69.46,3.24
Ancud,20,CL,1585509017,51,-41.87,-73.82,59.0,3.36
Pecos,1,US,1585509017,11,31.42,-103.49,72.0,11.41
Mogok,0,MM,1585509017,25,22.92,96.5,69.42,1.32
Sandakan,20,MY,1585509017,83,5.84,118.12,80.6,0.72
Terra Nova,75,BR,1585509018,66,-12.37,-40.67,84.2,4.7
Stornoway,99,GB,1585509018,87,58.21,-6.39,45.0,16.11
Pevek,100,RU,1585509019,88,69.7,170.31,15.04,28.41
Ahmadpur East,0,PK,1585509019,31,29.14,71.26,76.42,3.87
Abu Dhabi,20,AE,1585508967,35,24.47,54.37,86.0,11.41
Turukhansk,100,RU,1585509019,98,65.82,87.98,27.73,12.68
Bilma,37,NE,1585509019,11,18.69,12.92,87.37,5.01
Straumen,75,NO,1585509019,80,63.87,11.3,35.01,6.93
Ribeira Grande,47,PT,1585509019,76,38.52,-28.7,58.73,18.99
Vila Velha,47,BR,1585509019,74,-20.33,-40.29,82.4,10.29
Haines Junction,91,CA,1585509020,76,60.75,-137.51,2.79,8.79
Dunedin,69,NZ,1585509020,94,-45.87,170.5,54.0,1.01
Great Yarmouth,40,GB,1585509020,52,52.61,1.73,42.01,17.22
Usinsk,64,RU,1585509020,93,65.99,57.53,19.06,14.56
Turiaçu,38,BR,1585509021,78,-1.66,-45.37,84.43,6.85
Amapá,87,BR,1585508766,87,1.0,-52.0,81.82,4.18
Safaga,0,EG,1585509021,19,26.73,33.94,71.6,8.63
Kletskaya,14,RU,1585509021,42,49.31,43.06,51.49,12.24
Trebur,75,DE,1585509021,65,49.93,8.42,44.01,24.16
Bembèrèkè,34,BJ,1585509021,18,10.23,2.66,94.73,3.11
Caratinga,95,BR,1585509021,62,-19.79,-42.14,78.4,2.93
Kargopol',100,RU,1585509021,92,61.51,38.95,24.69,4.09
Markova,82,UA,1585509021,34,48.68,24.41,51.8,4.47
Kaka,89,TM,1585509022,61,37.35,59.61,58.62,8.1
Iwanai,0,JP,1585509022,88,42.97,140.51,31.35,2.39
Japura,20,ID,1585509022,96,-0.32,102.35,74.8,1.7
Santo Tomas,20,PH,1585509022,69,14.11,121.14,82.4,6.93
Santa María del Oro,41,MX,1585509022,10,25.93,-105.37,75.56,8.16
Qandala,2,SO,1585509022,64,11.47,49.87,83.79,5.03
Mackay,75,AU,1585509022,94,-21.15,149.2,75.0,5.82
Iqaluit,75,CA,1585509023,71,63.75,-68.51,8.6,3.36
Pitimbu,75,BR,1585509023,88,-7.47,-34.81,82.4,10.29
Dawei,0,MM,1585508883,73,14.08,98.2,75.42,3.02
Yar-Sale,37,RU,1585509023,94,66.83,70.83,25.66,25.17
Wanaka,54,NZ,1585509023,81,-44.7,169.15,44.01,1.52
Nesna,40,NO,1585509023,79,66.2,13.02,28.4,12.75
Tigzirt,18,DZ,1585509023,69,36.89,4.12,56.98,6.67
Florence,40,IT,1585508860,62,43.77,11.25,59.0,6.93
Hervey Bay,6,AU,1585508773,94,-25.3,152.85,68.0,6.93
Mackenzie,90,CA,1585509023,72,55.3,-123.17,14.0,10.29
Alamosa,75,US,1585509024,18,37.47,-105.87,50.0,16.11
Alofi,36,NU,1585509024,94,-19.06,-169.92,77.0,3.36
Kahului,20,US,1585509007,69,20.89,-156.47,77.0,16.11
Yangi Marg`ilon,7,UZ,1585509024,50,40.43,71.72,53.6,6.93
Imeni Stepana Razina,88,RU,1585509024,72,54.89,44.3,42.24,8.95
Copala,0,MX,1585509024,42,16.65,-98.98,86.18,9.19
Sola,100,VU,1585509024,82,-13.88,167.55,79.79,10.38
Wanning,59,CN,1585509024,90,18.8,110.4,76.64,8.77
Seoul,1,KR,1585509024,70,37.57,126.98,42.8,3.2
Goālpāra,0,IN,1585509024,25,26.17,90.62,75.2,5.1
Saint-Joseph,40,RE,1585509025,83,-21.37,55.62,77.0,4.7
Vallenar,87,CL,1585509025,23,-28.57,-70.76,82.49,9.66
Urk,20,NL,1585509025,55,52.66,5.6,39.99,18.34
Grand Gaube,75,MU,1585509025,94,-20.01,57.66,80.6,9.17
Bahía Honda,5,CU,1585509025,60,22.9,-83.16,82.99,11.99
Lüderitz,0,NA,1585509025,72,-26.65,15.16,64.4,16.11
Moerai,5,PF,1585509025,66,-22.43,-151.33,78.93,11.74
Danshui,75,CN,1585509025,83,22.8,114.47,73.0,6.71
Kīhei,20,US,1585509025,69,20.79,-156.47,77.0,16.11
Veshkayma,68,RU,1585509026,71,54.05,47.13,39.6,8.19
Viedma,38,AR,1585508802,38,-40.81,-63.0,71.17,9.71
Hamilton,1,US,1585509004,42,39.18,-84.53,66.2,28.86
Ahmednagar,45,IN,1585509026,27,19.08,74.73,83.59,11.03
Ponta do Sol,20,PT,1585508913,77,32.67,-17.1,64.4,2.24
Labuhan,100,ID,1585509026,84,-6.88,112.21,77.68,3.36
Rumonge,99,BI,1585509027,60,-3.97,29.44,72.54,2.8
Davila,20,PH,1585509027,83,18.47,120.58,77.0,2.24
Altea,20,ES,1585509027,67,38.6,-0.05,63.0,4.7
Evensk,74,RU,1585509027,93,61.95,159.23,13.21,8.48
Verkhnyaya Inta,80,RU,1585509027,94,65.98,60.31,20.97,15.5
Cockburn Town,0,TC,1585509027,77,21.46,-71.14,78.39,15.9
Merauke,98,ID,1585508743,88,-8.47,140.33,78.91,3.49
Olinda,75,BR,1585509027,79,-8.01,-34.86,84.2,10.29
Ozernovskiy,100,RU,1585509028,91,51.5,156.52,27.75,18.48
Bengkulu,100,ID,1585508876,82,-3.8,102.27,76.53,9.82
Enschede,76,NL,1585509028,47,52.22,6.9,39.0,12.75
Vanimo,88,PG,1585509028,83,-2.67,141.3,79.3,9.64
Wajir,93,KE,1585509028,55,1.75,40.06,89.6,6.98
Lagos,40,NG,1585509028,79,6.58,3.75,84.2,8.05
Esim,20,GH,1585509028,78,4.87,-2.24,82.71,8.37
Santa Ana,75,US,1585509028,55,33.75,-117.87,66.2,9.17
Yaan,84,NG,1585509029,51,7.38,8.57,89.8,9.55
Portland,75,US,1585509029,76,45.52,-122.68,54.0,13.87
Praia da Vitória,40,PT,1585509029,77,38.73,-27.07,59.0,26.69
Tommot,97,RU,1585509029,91,58.96,126.29,19.96,7.11
Byron Bay,8,AU,1585509029,100,-28.65,153.62,66.0,3.47
Mersing,1,MY,1585509029,83,2.43,103.84,80.6,3.36
Port Lincoln,44,AU,1585509029,69,-34.73,135.87,61.43,9.42
Hīt,20,IQ,1585509029,41,33.64,42.83,66.13,3.91
Malbork,20,PL,1585509029,88,54.04,19.03,36.0,13.87
Matola,0,MZ,1585509029,73,-25.96,32.46,77.0,10.29
Boyolangu,100,ID,1585509030,86,-8.12,111.89,76.17,0.89
Atherton,90,GB,1585509030,56,53.52,-2.49,43.0,16.11
Nhulunbuy,66,AU,1585509030,88,-12.23,136.77,78.8,12.08
Channel-Port aux Basques,0,CA,1585509030,94,47.57,-59.14,31.68,11.21
Baghdad,2,IQ,1585508886,40,33.34,44.4,65.82,6.46
Hūn,73,LY,1585509031,28,29.13,15.95,72.16,14.12
Kumluca,20,TR,1585509031,59,36.37,30.29,56.59,9.62
Batagay-Alyta,35,RU,1585509031,77,67.8,130.41,-9.49,2.57
Salalah,75,OM,1585508764,78,17.02,54.09,80.6,10.29
Lianzhou,95,CN,1585509031,82,24.78,112.38,52.83,4.45
Yumen,100,CN,1585509031,28,40.28,97.2,43.61,4.97
Tubualá,40,PA,1585509032,46,9.52,-79.03,91.99,12.75
Marmari,33,GR,1585509032,81,38.05,24.32,55.99,3.36
Sānchor,0,IN,1585509032,19,24.76,71.77,81.63,9.73
Baksheyevo,100,RU,1585509032,61,55.71,39.88,48.72,7.0
Pizarro,63,CO,1585509032,84,4.95,-77.37,80.22,10.29
Great Falls,1,US,1585508824,27,47.5,-111.3,55.0,21.92
Kilindoni,24,TZ,1585509033,76,-7.91,39.67,83.79,12.95
Mareeba,75,AU,1585509033,94,-17.0,145.43,75.2,14.99
Constitución,37,CL,1585509033,51,-35.33,-72.42,67.17,14.85
Paamiut,100,GL,1585509033,98,61.99,-49.67,31.66,20.8
Kolokani,100,ML,1585509033,19,13.57,-8.03,86.14,1.66
Biograd na Moru,0,HR,1585509033,71,43.94,15.45,55.99,4.7
San Luis,50,AR,1585509033,30,-33.3,-66.34,81.39,2.1
Dingle,48,PH,1585508915,80,11.0,122.67,77.76,8.7
Fichē,15,ET,1585509033,25,9.8,38.73,59.81,6.26
Richards Bay,13,ZA,1585509033,81,-28.78,32.04,75.13,5.03
Sātkhira,20,BD,1585509033,66,22.72,89.1,84.2,4.7
Dhidhdhoo,4,MV,1585509034,63,6.88,73.1,83.89,2.04
Vanavara,83,RU,1585509034,93,60.34,102.28,17.56,8.48
Kieta,94,PG,1585509034,76,-6.22,155.63,79.66,2.66
Copiapó,77,CL,1585508759,60,-27.37,-70.33,69.8,10.29
Presidencia Roque Sáenz Peña,26,AR,1585509034,45,-26.79,-60.44,91.38,3.24
Mehrān,40,IR,1585509034,76,33.12,46.16,48.2,4.7
Kawhia,1,NZ,1585509035,87,-38.07,174.82,57.0,7.0
Shelburne,85,CA,1585508894,100,44.08,-80.2,64.99,8.05
São Raimundo Nonato,42,BR,1585509035,62,-9.02,-42.7,85.26,7.54
Almaznyy,20,RU,1585509035,40,48.04,40.05,53.6,11.18
Husavik,75,IS,1585509035,84,66.04,-17.34,46.4,24.16
Tumut,100,AU,1585509036,78,-35.3,148.22,63.0,2.62
Dicabisagan,84,PH,1585509036,80,17.08,122.42,76.93,3.13
Bara,51,NG,1585509036,13,10.37,10.73,90.45,1.9
Yarensk,99,RU,1585509036,93,62.17,49.09,26.69,4.0
Anan,75,JP,1585509036,66,33.92,134.65,48.2,9.17
Cabo San Lucas,40,MX,1585509036,60,22.89,-109.91,78.8,9.17
Omboué,50,GA,1585508976,85,-1.57,9.26,81.77,6.42
Kudahuvadhoo,91,MV,1585509037,68,2.67,72.89,83.62,7.74
Dalvik,75,IS,1585509037,77,65.97,-18.53,46.4,24.16
Samarai,96,PG,1585509037,86,-10.62,150.67,79.21,7.99
Stony Plain,90,CA,1585509037,79,53.53,-114.0,27.0,8.05
Arlit,74,NE,1585509037,14,18.74,7.39,91.11,3.85
Kuala Sungai Baru,20,MY,1585509037,78,2.36,102.04,80.6,3.36
Egvekinot,86,RU,1585509038,90,66.32,-179.17,-1.03,5.21
Kiryat Gat,40,IL,1585509038,55,31.61,34.76,64.4,6.93
Nova Olinda do Norte,35,BR,1585509038,58,-3.89,-59.09,91.54,4.52
Kawalu,100,ID,1585509038,81,-7.38,108.21,74.61,1.25
Erenhot,23,CN,1585509038,37,43.65,111.98,40.17,12.97
Ürümqi,43,CN,1585509038,55,43.8,87.6,35.6,2.24
Bagé,20,BR,1585508747,48,-31.33,-54.11,86.0,8.05
Port Macquarie,37,AU,1585509038,100,-31.43,152.92,60.8,3.36
Mocuba,23,MZ,1585509038,92,-16.84,36.99,71.08,3.85
Vao,73,NC,1585509039,77,-22.67,167.48,74.89,22.21
Casino,1,AU,1585509039,100,-28.87,153.05,64.0,3.36
Binzhou,0,CN,1585509039,54,37.37,118.02,48.99,6.73
Bull Savanna,6,JM,1585509039,52,17.89,-77.59,83.37,17.18
Mawlaik,0,MM,1585508901,30,23.63,94.42,76.8,2.8
Tilichiki,100,RU,1585509039,98,60.47,166.1,29.16,12.21
Berea,90,US,1585508914,48,41.37,-81.85,69.8,28.86
Tautira,84,PF,1585509039,58,-17.73,-149.15,87.8,6.93
Nelson Bay,40,AU,1585509039,93,-32.72,152.15,66.99,10.51
Umm Kaddadah,1,SD,1585509039,11,13.6,26.69,84.45,15.39
Buraidah,40,SA,1585509040,77,26.33,43.98,64.4,12.75
Gautier,1,US,1585509040,51,30.39,-88.61,86.0,3.09
Bubaque,15,GW,1585509040,67,11.28,-15.83,81.1,16.69
Khasan,0,RU,1585509040,80,42.43,130.64,37.22,3.78
Banyo,99,CM,1585509040,38,6.75,11.82,78.67,3.36
Spokane,90,US,1585508918,70,47.62,-117.37,50.0,17.22
Skibbereen,20,IE,1585509040,55,51.55,-9.27,39.2,14.99
Hambantota,40,LK,1585509040,88,6.12,81.12,82.4,1.12
Batagay,100,RU,1585509040,90,67.63,134.63,1.49,2.68
Grindavik,75,IS,1585509041,93,63.84,-22.43,42.8,19.46
Nishihara,75,JP,1585509041,82,26.18,127.76,68.0,5.82
Trelew,0,AR,1585509041,24,-43.25,-65.31,69.71,8.16
Tlacotepec (San Mateo),72,MX,1585509041,44,20.07,-97.87,75.63,7.92
Fairview,90,US,1585508798,100,40.81,-74.0,50.0,12.75
Ulladulla,40,AU,1585508990,72,-35.35,150.47,68.0,10.29
Basco,100,PH,1585509041,86,20.45,121.97,77.04,18.57
Jiaozuo,75,CN,1585509042,75,35.24,113.23,41.85,2.77
Ubari,85,LY,1585509042,33,26.59,12.78,76.71,3.09
Payo,100,ID,1585509042,89,-3.75,103.64,74.88,1.74
Warrnambool,39,AU,1585509042,95,-38.38,142.48,54.0,12.93
Camargo,56,MX,1585509043,13,27.67,-105.17,71.17,4.97
Juegang,100,CN,1585509043,94,32.32,121.19,45.0,7.83
Santa Eulalia,81,PE,1585509043,69,-11.85,-76.68,77.0,5.82
Puerto Carreño,40,CO,1585509043,30,6.19,-67.49,98.6,16.11
Babstovo,7,RU,1585509043,73,48.12,132.48,36.39,10.6
Idah,88,NG,1585509043,54,7.11,6.73,90.41,5.7
Leningradskiy,99,RU,1585508917,82,69.38,178.42,16.3,9.1
Grand Forks,1,US,1585508832,86,47.93,-97.03,44.6,13.87
Mossamedes,42,AO,1585509043,75,-15.2,12.15,72.64,8.57
Flinders,40,AU,1585508745,72,-34.58,150.86,68.0,10.29
Saint-Max,97,FR,1585509044,60,48.7,6.21,41.0,12.75
Charters Towers,3,AU,1585509044,86,-20.1,146.27,68.54,5.95
Aromashevo,100,RU,1585509044,92,56.86,68.64,34.83,10.87
Istok,20,XK,1585509044,46,42.78,20.49,50.0,9.17
Saint-Augustin,0,CA,1585509044,93,51.23,-58.65,31.21,7.72
Antalaha,91,MG,1585509044,88,-14.9,50.28,78.3,6.06
Coahuayana Viejo,5,MX,1585509044,32,18.73,-103.68,84.2,11.41
Teya,91,RU,1585509044,94,60.38,92.63,23.5,7.56
Nemuro,11,JP,1585509044,88,43.32,145.57,32.76,6.89
Pemangkat,92,ID,1585509045,85,1.17,108.97,78.39,6.69
Sterlibashevo,100,RU,1585509045,89,53.44,55.26,34.14,10.16
Fort Frances,1,CA,1585509045,23,48.6,-93.4,48.2,16.11
Uvinza,69,TZ,1585508945,67,-5.1,30.39,67.17,1.86
Ojinaga,1,MX,1585509045,13,29.57,-104.42,75.2,8.05
Babati,72,TZ,1585509045,55,-4.22,35.75,66.2,1.3
Te Anau,16,NZ,1585509045,71,-45.42,167.72,46.35,1.03
East Millcreek,75,US,1585509045,57,40.7,-111.81,52.0,11.41
Snåase,40,NO,1585509045,92,64.25,12.38,30.2,4.7
Atakent,54,KZ,1585509045,37,40.85,68.51,57.47,7.63
Batemans Bay,100,AU,1585509045,94,-35.72,150.18,64.0,3.0
Sioux City,1,US,1585509045,53,42.5,-96.4,54.0,24.16
Havelock,75,US,1585508892,61,34.88,-76.9,89.01,17.22
